===========================================
timestamp_ms,nmea_sentence
59435,$GPRMC,133529.00,A,5240.13351,N,00131.45732,W,0.036,,091,N,00131.45732,W,1,12,0.71,100.5,M,47.5,M,,*44
$GPGSA,A,3,24,15,12,19,17,23,10,22,13,14,32,25,1.48,0.71,1.29*0D
$GPGSV,4,1,14,01,02,023,26,02,03,354,25,10,29,302,26,12,37,208,31*7B
$GPGSV,4,2,14,13
59435,,22,139,39,14,13,051,27,15,42,170,30,17,30,067,34*7B
$GPGSV,4,3,14,19,31,094,37,22,29,053,36,23,30,253,29,24,81,282,32*7B
$GPGSV,4,4,14,25,07,222,19,32,08,314,35*7F
$GPGLL,5240.13351,N,00131.45732,W,133529.00,A,A*76
===========================================
timestamp_ms,nmea_sentence
1114,,,24,84,284,*72
$GPGSV,4,4,14,25,09,223,,32,10,314,*77
$GPGLL,,,,,134026.29,V,N*43
$GPRMC,134027.00,V,,,,,,,091125,*70
$GPVTG,,,,,,,,,N*3,4,14,25,09,223,,32,10,314,*77
$GPGLL,,,,,134027.00,V,N*49
$GPTXT,01,01,02,ANTSTATUS=INIT*25
1367,$GPRMC,134027.50,V,,,,,,,091125,,,N*75
$GPVTG,,,,,,,,,N*30
$GPGGA,134027.50,,7,,,,,,*56
$GPGSA,A,1,15,19,17,13,,,,,,,,,9.37,5.07,7.88*00
$GPGSV,4,1,15,01,03,021,,02,03,353,,10,29,300,,12,40,209,*78
$GPGSV,4,2,15,13,20,140,45,14,11,051,,15,40,170,43,17
1367,,30,064,41*7D
$GPGSV,4,3,15,19,32,07,053,,23,29,251,,24,842,10,314,,40,11,118,37*4E
$GPGLL,,,,,134027.50,V,N*4C
1367,$GPRMC,134028.00,A,5240.13468,N,00131.45861,W,0.135,,091125,,,A*61
$GPVTG,,T,,M,0.135,N,0.250,K,A*23
$GPGGA,134028.00,5240.13468,N,00131.45861,W,1,10,0.99,107.7,M,47.5,M,,*42
$GPGSA,A,3,24,12,15,19,17,23,22,13,14,25,,,1.71,0.99,1.39*00
$GPGSV,4,1,15,01
1367,,03,021,,02,03,353,,10,29,300,305*7D
$GPGSV,4,2,15,13,20,140,41,14,11,051,35,15,40,170,42,17,30,064,37*7F
$GPGSV,4,3,15,19,32,092,44,22,27,053,36,23,29,251,35,24,84,284,37*74
$GPGSV,4,4,15,25,09,223,36,32,10,314,,40,11,118,37*4B
$GPGLL,5240.13468,N,001
1367,31.45861,W,134028.00,A,A*71
$GP2,ANTSTATUS=OK*3B
2840,$GPRMC,134029.00,A,5240.13317,N,00131.45661,W,0.208,,091125,,,A*6C
$GPVTG,,T,,M,0.20*24
$GPGGA,134029.00,5240.13317,N,00131.45661,W,1,11,0.80,99.8,M,47.5,M,,*72
$GPGSA,A,3,24,12,15,19,17,10,23,22,13,14,25,,1.60,0.80,1.39*09
$GPGSV,4,1,15,01,03,021,24,0
2840,2,03,353,27,10,29,300,34,12,40,209,3,4,2,15,13,20,140,41,14,11,051,31,15,40,170,41,17,30,064,41*79
$GPGSV,4,3,15,19,32,092,42,22,27,053,37,23,29,251,32,24,84,284,38*7B
$GPGSV,4,4,15,25,09,223,33,32,10,314,22,40,11,118,37*4E
$GPGLL,5240.13317,N,00131.456
2840,61,W,134029.00,A,A*71
3714,$GPRMC,134030.00,A,5240.13372,N,00131.45730,W,0.152,,091125,,,A*6E
$GPVTG,,T,,M,0.152,N,0.281,K,A*2E
$GPGGA,134030.00,5240.13372,N,00131.45730,W,1,11,0.80,100.4,M,47.5,M,,*41
$GPGSA,A,3,24,12,15,19,17,10,23,22,13,14,25,,1.60,0.80,1.39*09
$GPGSV,4,1,15,
3714,01,03,021,23,02,03,353,26,10,29,,209,41*7F
$GPGSV,4,2,15,13,20,140,41,14,11,051,27,15,40,170,43,17,30,064,42*7F
$GPGSV,4,3,15,19,32,092,41,22,27,053,35,23,29,251,33,24,84,284,36*75
$GPGSV,4,4,15,25,09,223,36,32,10,314,,40,11,118,36*4A
$GPGLL,5240.13372
3714,,N,00131.45730,W,134030.00,A,A*7
4854,$GPRMC,134031.00,A,5240.13419,N,31.45761,W,0.616,31.45,GGA,134031.00,5240.13419,N,00131.45761,W,1,11,0.80,100.4,M,47.5,M,,*4E
$GPGSA,A,3,24,12,15,19,17,10,23,22,13,14,25,,1.60,0.80,1.39*09
$GPGSV,4,1,15,01,03,021,25,02,03,353,25,10,29,300,27,12,40,209,40
4854,*79
$GPGSV,4,2,15,13,20,140,43,15,40,170,43,17,30,064,42*79
$GPGSV,4,3,15,19,32,092,42,22,27,053,40,23,29,251,33,24,84,284,33*71
$GPGSV,4,4,15,25,09,223,29,32,10,314,,40,11,118,37*45
$GPGLL,5240.13419,N,00131.45761,W,134031.00,A,A*70
5691,$GPRMC,134032.00,A,5240.13396,N,00131.45696,W,0.216,,091125,,,A*68
$GPVTG,,T,,M,0.216,N,0.401,K,A*23
$GPGGA,134032.00,5240.13396,N,00131.45696,W,1,11,0.80,100.9,M,47.5,M,,*49
$GPGSA,A,3,24,12,15,19,17,10,23,22,13,14,25,,1.60,0.80,1.39*09
$GPGSV,4,1,15,
5691,01,03,021,32,02,03,353,24,10,29,209,40*79
$GPGSV,4,2,15,13,20,140,41,14,11,051,37,15,40,170,44,17,30,064,42*79
$GPGSV,4,3,15,19,32,092,42,22,27,053,39,23,29,251,33,24,84,284,33*7F
$GPGSV,4,4,15,25,09,223,30,32,10,314,22,40,11,118,37*4D
$GPGLL,5240.1339
5691,6,N,00131.45696,W,134032.00,A,A*
6766,$GPRMC,134033.00,A,5240.13382,N,00131.45690,W,0.366,,091125,,,A*6C
$GPVTG,,T,,M,0.366,N,0.677,K,A*26
$GPGGA,134033.00,5240.13382,N,00131.45690,W,1,11,0.80,100.8,M,47.5,M,,*4A
$GPGSA,A,3,24,12,15,19,17,10,23,22,13,14,25,,1.60,0.80,1.39*09
$GPGSV,4,1,15,
6766,01,03,021,31,02,03,353,24,10,29,,209,39*72
$GPGSV,4,2,17,30,064,41*7D
$GPGSV,4,3,15,19,32,092,44,22,27,053,40,23,29,251,27,24,84,284,36*77
$GPGSV,4,4,15,25,09,223,32,32,10,314,,40,11,118,36*4E
$GPGLL,5240.13382,N,00131.45690,W,134033.00,A,A*78
7781,$GPRMC,134034.00,A,5240.13371,N,00131.45680,W,0.133,,091125,,,A*64
$GPVTG,,T,,M,0.133,N,0.246,K,A*22
$GPGGA,134034.00,5240.13371,N,00131.45680,W,1,11,0.80,100.8,M,47.5,M,,*40
$GPGSA,A,3,24,12,15,19,17,10,23,22,13,14,25,,1.60,0.80,1.39*09
$GPGSV,4,1,15,
7781,01,03,021,35,02,03,353,22,10,29,299,09,40*7A
$GPGSV,4,2,1517,30,064,36*7E
$GPGSV,4,3,15,19,32,092,41,22,27,053,38,23,29,251,26,24,84,284,30*7A
$GPGSV,4,4,15,25,09,223,28,32,10,314,21,40,11,118,36*46
$GPGLL,5240.13371,N,00131.45680,W,134034.00,A,A*72
8798,$GPRMC,134035.00,A,5240.13383,N,00130.156,,091125,,,A*67
$GPVTG,,T,,M,0.156,N,0.288,K,A*23
$GPGGA,134035.00,5240.13383,N,00131.45651,W,1,11,0.80,100.5,M,47.5,M,,*4D
$GPGSA,A,3,24,12,15,19,17,10,23,22,13,14,25,,1.60,0.80,1.39*09
$GPGSV,4,1,15,01,03,021,
8798,34,02,03,353,19,10,29,299,26,12,
$GPGSV,4,2,15,13,20,140,37,14,11,051,31,15,40,170,31,17,30,064,39*70
$GPGSV,4,3,15,19,32,092,38,22,27,053,36,23,29,251,26,24,84,284,25*7E
$GPGSV,4,4,15,25,09,223,26,32,10,314,23,40,11,118,31*4D
$GPGLL,5240.13383,N,00131.
8798,45651,W,134035.00,A,A*72
9843,$GPRMC,134036.00,A,5240.13370,N,00131.45643,W,0.079,,09,47.5,M,,*41
$GPGSA,A,3,24,12,15,19,17,10,23,22,13,14,25,,1.60,0.80,1.39*09
$GPGSV,4,1,15,01,03,021,30,02,03,353,,10,29,299,31,12,40,209,34*7F
$GPGSV,4,2,15,13,20,140,38,14,11,051,22,15,40,170,36,17
9843,,30,064,34*77
$GPGSV,4,3,15,19,2,27,053,28,23,29,251,20,24,84,284,23*7D
$GPGSV,4,4,15,25,09,223,31,32,10,314,,40,11,118,36*4D
$GPGLL,5240.13370,N,00131.45643,W,134036.00,A,A*7E
10800,$GPRMC,134037.00,A,5240.13337,N,0013.267,81.67,091125,,,A*43
$GPVTG,81.67,T,,M,1.267,N,2.347,K,A*05
$GPGGA,134037.00,5240.13337,N,00131.45591,W,1,11,0.80,100.8,M,47.5,M,,*42
$GPGSA,A,3,24,12,15,19,17,10,23,22,13,14,25,,1.60,0.80,1.39*09
$GPGSV,4,1,15,0
10800,1,03,021,33,02,03,353,24,10,29,2,209,32*7A
$GPGSV,4,2,15,13,20,140,37,14,11,051,34,15,40,170,34,17,30,064,29*71
$GPGSV,4,3,15,19,32,092,36,22,27,053,37,23,29,251,27,24,84,284,30*74
$GPGSV,4,4,15,25,09,223,31,32,10,314,24,40,11,118,35*48
$GPGLL,5240.133
10800,37,N,00131.45591,W,134037.00,A,A
11856,$GPRMC,134038.00,A,5240.13379,N,31.45581,W,1.487,69.20,,47.5,M,,*70
$GPGSA,A,3,24,12,15,19,17,10,23,22,13,14,32,25,1.49,0.71,1.31*05
$GPGSV,4,1,14,01,03,021,36,02,03,353,20,10,29,299,35,12,40,209,32*78
$GPGSV,4,2,14,13,20,140,39,14,11,051,43,15,40,170,3
11856,3,17,30,064,42*74
$GPGSV,4,3,1422,27,053,39,23,29,251,25,24,84,284,29*70
$GPGSV,4,4,14,25,09,223,24,32,10,314,37*75
$GPGLL,5240.13379,N,00131.45581,W,134038.00,A,A*74
12824,$GPRMC,134039.00,A,5240.13431,N,00131.45550,W,2.026,56.51,091
$GPVTG,56.51,T,,M,2.026,N,3.753,K,A*0E
$GPGGA,134039.00,5240.13431,N,00131.45550,W,1,12,0.71,98.8,M,47.5,M,,*7D
$GPGSA,A,3,24,12,15,19,17,10,23,22,13,14,32,25,1.49,0.71,1.31*05
$GPGSV,4,1,14
12824,,01,03,021,38,02,03,353,39,10,29209,29*76
$GPGSV,4,2,14,13,20,140,32,14,11,051,41,15,40,170,28,17,30,064,41*74
$GPGSV,4,3,14,19,32,092,34,22,27,053,44,23,29,251,27,24,84,284,30*73
$GPGSV,4,4,14,25,09,223,23,32,10,314,32*77
$GPGLL,5240.13431,N,00131.455
12824,50,W,134039.00,A,A*72
13730,$GPRMC,134040.00,A,5240.13477,N,5488,W,2.147,57.27,091125,,,A*44
$GPVTG,57.27,T,,M,2.147,N,3.977,K,A*00
$GPGGA,134040.00,5240.13477,N,00131.45488,W,1,12,0.71,98.6,M,47.5,M,,*7B
$GPGSA,A,3,24,12,15,19,17,10,23,22,13,14,32,25,1.49,0.71,1.31*05
$GPGSV,4,1
13730,,14,01,03,021,33,02,03,353,37,1012,40,209,29*71
$GPGSV,4,2,14,13,20,140,30,14,11,051,40,15,40,170,28,17,30,064,39*78
$GPGSV,4,3,14,19,32,092,36,22,27,053,38,23,29,251,28,24,84,284,29*7D
$GPGSV,4,4,14,25,09,223,21,32,10,314,39*7E
$GPGLL,5240.13477,N,001
13730,31.45488,W,134040.00,A,A*7A
14880,$GPRMC,134041.00,A,5240.13501,N,00131.45126,54.18,091125,,,A*4C13501,N,00131.45401,W,1,12,0.71,98.6,M,47.5,M,,*7B
$GPGSA,A,3,24,12,15,19,17,10,23,22,13,14,32,25,1.49,0.71,1.31*05
$GPGSV,4,1,14,01,03,021,32,02,03,353,40,10,29,299,28,12,40,209,20*75
$GPGS
14880,V,4,2,14,13,20,140,36,14,11,051,1,17,30,064,43*7E
$GPG,251,26,24,84,284,32*77
$GPGSV,4,4,14,25,09,223,17,32,10,314,34*76
$GPGLL,5240.13501,N,00131.45401,W,134041.00,A,A*7A
15856,$GPRMC,134042.00,A,5240.13524,N,00131.45320,W,1.934,59.12,0.71,98.5,M,47.5,M,,*78
$GPGSA,A,3,24,12,15,19,17,10,23,22,13,14,32,25,1.49,0.71,1.31*05
$GPGSV,4,1,14,01,03,021,37,02,03,353,40,10,29,299,27,12,40,209,29*76
$GPGSV,4,2,14,13,20,140,38,14,11,051,
15856,45,15,40,170,34,17,30,064,43*75
,14,19,32,092,44,22,27,053,42,23,29,251,26,24,84,284,36*75
$GPGSV,4,4,14,25,09,223,16,32,10,314,37*74
$GPGLL,5240.13524,N,00131.45320,W,134042.00,A,A*7A
16801,$GPRMC,134043.00,A,5240.13552,N,45243,W,1.766,55.26,091125,,,A*45
$GPVTG,55.26,T,,M,1.766,N,3.271,K,A*08
$GPGGA,134043.00,5240.13552,N,00131.45243,W,1,12,0.71,98.8,M,47.5,M,,*71
$GPGSA,A,3,24,12,15,19,17,10,23,22,13,14,32,25,1.49,0.71,1.31*05
$GPGSV,4,
16801,1,14,01,03,021,41,02,03,353,36,1,40,209,33*7D
$GPGSV,4,2,14,13,20,140,34,14,11,051,42,15,40,170,30,17,30,064,41*78
$GPGSV,4,3,14,19,32,092,44,22,27,053,40,23,29,251,25,24,84,284,30*72
$GPGSV,4,4,14,25,09,223,18,32,10,314,33*7E
$GPGLL,5240.13552,N,00131
16801,.45243,W,134043.00,A,A*7E
17708,$GPRMC,134044.00,A,5240.13574,N,00131.45183,W,1.187,53.60,091125,,,A*44
$GPVTG,53.60,T,,M,1.187,N,2.199,K,A*01
$GPGGA,134044.00,5240.13574,N,00131.45183,W,1,11,0.80,98.8,M,47.5,M,,*70
$GPGSA,A,3,24,12,15,19,17,10,23,22,13,14,25,,1.60,0.80,1.39*09
$GPGS
17708,V,4,1,14,01,03,021,36,02,03,353,31,12,40,209,33*75
$GPGSV,4,2,14,13,20,140,35,14,11,051,46,15,40,170,30,17,30,064,41*7D
$GPGSV,4,3,14,19,32,092,37,22,27,053,45,23,29,251,25,24,84,284,17*76
$GPGSV,4,4,14,25,09,223,17,32,10,314,20*73
$GPGLL,5240.13574,N,
17708,00131.45183,W,134044.00,A,A*72
18839,$GPRMC,134045.00,A,5240.13578,N,00131.45163,W,0.139,,091125,,,A*6D
$GPVTG,,T,.258,K,A*27
$GPGGA,134045.00,5240.13578,N,00131.45163,W,1,10,0.86,98.8,M,47.5,M,,*74
$GPGSA,A,3,24,12,15,19,17,10,23,22,13,14,,,1.92,0.86,1.71*09
$GPGSV,4,1,14,01,03,021,34,02
18839,,03,353,33,10,29,299,31,12,40,20V,4,2,14,13,20,140,37,14,11,051,40,15,40,170,38,17,30,064,46*76
$GPGSV,4,3,14,19,32,092,39,22,27,053,45,23,29,251,25,24,84,284,27*7B
$GPGSV,4,4,14,25,09,223,20,32,10,314,26*71
$GPGLL,5240.13578,N,00131.45163,W,134045.00,A
18839,,A*71
19714,$GPRMC,134046.00,A,5240.13575,N,00131.45164,W,0.038,,091125,,,A*64
$GPVTG,,T,,M,0.038,N,0.071,K,A*2E
$GPGGA,134046.00,5240.13575,N,00131.45164,W,1,11,0.80,99.3,M,47.5,M,,*70
$GPGSA,A,3,24,12,15,19,17,10,23,22,13,14,25,,1.60,0.80,1.39*09
$GPGSV,4,1,14,0
19714,1,03,021,34,02,03,353,29,10,29,2209,24*78
$GPGSV,4,2,14,13,20,140,37,14,11,051,38,15,40,170,33,17,30,064,46*72
$GPGSV,4,3,14,19,32,092,41,22,27,053,44,23,28,251,25,24,84,284,38*7A
$GPGSV,4,4,14,25,09,223,27,32,10,314,*72
$GPGLL,5240.13575,N,00131.45164
19714,,W,134046.00,A,A*78
20863,$GPRMC,134047.00,A,5240.13576,N,6,W,0.184,,091125,,,A*6576,N,00131.45156,W,1,11,0.80,99.6,M,47.5,M,,*76
$GPGSA,A,3,24,12,15,19,17,10,23,22,13,14,25,,1.60,0.80,1.39*09
$GPGSV,4,1,15,01,03,021,33,02,03,353,32,10,29,299,40,12,40,209,27*79
$GPGSV,4,2,15,13,
20863,20,140,37,14,11,051,38,15,40,170,37,47*76
$GPGSV,4,3,15,19,32,092,41,22,27,053,45,23,28,251,24,24,84,284,38*7B
$GPGSV,4,4,15,25,09,223,22,32,10,314,19,40,11,118,36*47
$GPGLL,5240.13576,N,00131.45156,W,134047.00,A,A*7B
21831,$GPRMC,134048.00,A,5240.13584,N,00131.45167,W,0.247,,091125PVTG,,T,,M,0.247,N,0.4511,0.80,99.9,M,47.5,M,,*79
$GPGSA,A,3,24,12,15,19,17,10,23,22,13,14,25,,1.60,0.80,1.39*09
$GPGSV,4,1,15,01,03,021,30,02,03,353,28,10,29,299,38,12,40,209,17*7D
$GPGSV,4,2,1
21831,5,13,20,140,37,14,11,051,40,15,4,30,064,45*75
$GPGSV,4,3,15,19,32,092,42,22,27,053,44,23,28,251,23,24,84,284,36*70
$GPGSV,4,4,15,25,10,223,22,32,10,314,35,40,11,118,34*43
$GPGLL,5240.13584,N,00131.45167,W,134048.00,A,A*7B
22852,$GPRMC,134049.00,A,5240.13591,N,00131.45177,W,0.352,,09,5240.13591,N,00131.45177,W,1,12,0.71,100.0,M,47.5,M,,*48
$GPGSA,A,3,24,12,15,19,17,10,23,22,13,14,32,25,1.49,0.71,1.31*05
$GPGSV,4,1,15,01,03,021,33,02,03,353,27,10,29,299,35,12,40,209,29*71
$GPGSV
22852,,4,2,15,13,20,140,35,14,11,051,3,17,30,064,43*71
$GPGS51,20,24,84,284,33*73
$GPGSV,4,4,15,25,10,223,22,32,10,314,34,40,11,118,33*45
$GPGLL,5240.13591,N,00131.45177,W,134049.00,A,A*7F
23839,$GPRMC,134050.00,A,5240.13598,N,00131.45186,W,0.164,,091125,,,A*64
$GPVTN,0.305,K,A*26
$GPGGA,.5,M,,*47
$GPGSA,A,3,24,12,15,19,17,10,23,22,13,14,32,25,1.49,0.71,1.31*05
$GPGSV,4,1,15,01,03,021,31,02,03,353,,10,29,299,31,12,40,209,22*79
$GPGSV,4,2,15,1
23839,3,20,140,32,14,11,051,35,15,40,164,40*79
$GPGSV,4,3,15,19,32,092,38,22,27,053,39,23,28,251,18,24,84,284,33*7A
$GPGSV,4,4,15,25,10,223,19,32,10,314,34,40,11,118,31*4F
$GPGLL,5240.13598,N,00131.45186,W,134050.00,A,A*70
24866,$GPRMC,134051.00,A,5240.13603,N,0013.105,,091125,,,A*60
$G40.13603,N,00131.45194,W,1,12,0.71,100.3,M,47.5,M,,*47
$GPGSA,A,3,24,12,15,19,17,10,23,22,13,14,32,25,1.49,0.71,1.31*05
$GPGSV,4,1,15,01,03,021,30,02,03,353,,10,29,299,32,12,40,209,23*7A
$GPGSV,
24866,4,2,15,13,20,140,38,14,11,051,38,15,7,17,30,064,40*7F
$GPGSV,4,3,15,19,32,092,42,22,27,053,40,23,28,251,17,24,84,284,37*72
$GPGSV,4,4,15,25,10,223,16,32,10,314,29,40,11,118,31*4C
$GPGLL,5240.13603,N,00131.45194,W,134051.00,A,A*73
25811,$GPRMC,134052.00,A,5240.13613,N,196,W,0.252,,091125,,,A,5240.13613,N,00131.45196,W,1,12,0.71,100.2,M,47.5,M,,*46
$GPGSA,A,3,24,12,15,19,17,10,23,22,13,14,32,25,1.49,0.71,1.31*05
$GPGSV,4,1,15,01,03,021,29,02,03,353,,10,29,299,36,12,40,209,35*71
$GPGSV,4
25811,,2,15,13,20,140,36,14,11,051,40,15,40,170,4043*7C
$GPGSV,4,3,15,19,32,092,44,22,27,053,42,23,28,251,28,24,84,284,36*7B
$GPGSV,4,4,15,25,10,223,18,32,10,314,33,40,11,118,36*4E
$GPGLL,5240.13613,N,00131.45196,W,134052.00,A,A*73
26819,$GPRMC,134053.00,A,5240.13636,N,00131.45169,W,1.336,48.948
$GPVTG,48.96,T,,M,1.336,N,2.474,K,A*0C
$GPGGA,134053.00,5240.13636,N,00131.45169,W,1,12,0.71,100.1,M,47.5,M,,*43
$GPGSA,A,3,24,12,15,19,17,10,23,22,13,14,32,25,1.49,0.71,1.31*05
$GPGSV,4,1,15,0
26819,1,03,021,29,02,03,353,,10,29,299,33,,30*71
$GPGSV,4,2,15,13,20,140,33,14,11,051,35,15,40,170,30,17,30,064,33*7B
$GPGSV,4,3,15,19,32,092,37,22,27,053,38,23,28,251,27,24,84,284,31*7A
$GPGSV,4,4,15,25,10,223,29,32,10,314,35,40,11,118,30*4C
$GPGLL,5240.136
26819,36,N,00131.45169,W,134053.00,A,A*75
27713,$GPRMC,134054.00,A,5240.13657,N,00131.45114,W,1.434,57.72,091125,,,A*43
$GPVTG,57.72,T,,M,1.434,N,2.655,K,A*0C
$GPGGA,134054.00,5240.13657,N,00131.45114,W,1,12,0.71,100.3,M,47.5,M,,*4B
$GPGSA,A,3,24,12,15,19,17,10,23,22,13,14,32,25,1.49,0.71,1.31*05
$G
27713,PGSV,4,1,15,01,03,021,33,02,03,3,299,28,12,40,209,31*7B
$GPGSV,4,2,15,13,20,140,36,14,11,051,38,15,40,170,28,17,30,064,38*71
$GPGSV,4,3,15,19,32,092,35,22,27,053,39,23,28,251,26,24,84,284,32*7B
$GPGSV,4,4,15,25,10,223,27,32,10,314,34,40,11,118,29*4B
$G
27713,PGLL,5240.13657,N,00131.45114,W,A*7F
28865,$GPRMC,134055.00,A,5240.13684,N,1.891,58.75,091125,,,A*5240.13684,N,00131.45047,W,1,12,0.71,100.7,M,47.5,M,,*47
$GPGSA,A,3,24,12,15,19,17,10,23,22,13,14,32,25,1.49,0.71,1.31*05
$GPGSV,4,1,15,01,03,021,30,02,03,353,28,10,29,299,27,12,40,209,28*7F
$GPGSV,
28865,4,2,15,13,20,140,29,14,11,051,26,15,2,17,30,064,23*71
$GPGSV,4,3,15,19,32,092,33,22,27,053,31,23,28,251,26,24,84,284,35*72
$GPGSV,4,4,15,25,10,223,25,32,10,314,30,40,11,118,29*4D
$GPGLL,5240.13684,N,00131.45047,W,134055.00,A,A*77
29854,$GPRMC,134056.00,A,5240.13715,N,00131.44966,W,1.724,59.,M,47.5,M,,*47
$GPGSA,A,3,24,12,15,19,17,10,23,22,13,14,32,25,1.49,0.71,1.31*05
$GPGSV,4,1,15,01,03,021,34,02,03,353,30,10,29,299,37,12,40,209,35*7F
$GPGSV,4,2,15,13,20,140,34,14,11,051,39,15,40,170
29854,,35,17,30,064,43*72
$GPGSV,4,3,2,39,22,27,053,42,23,28,251,35,24,84,284,37*7C
$GPGSV,4,4,15,25,10,223,25,32,10,314,23,40,11,118,33*44
$GPGLL,5240.13715,N,00131.44966,W,134056.00,A,A*76
30861,$GPRMC,134057.00,A,5240.13762,N,31.44909,W,1.992,43.19,7.00,5240.13762,N,00131.44909,W,1,12,0.71,100.7,M,47.5,M,,*4E
$GPGSA,A,3,24,12,15,19,17,10,23,22,13,14,32,25,1.49,0.71,1.31*05
$GPGSV,4,1,15,01,03,021,26,02,03,353,24,10,29,299,41,12,40,209,43*79
$G
30861,PGSV,4,2,15,13,20,140,42,14,11,00,43,17,30,064,40*7D
$28,251,41,24,84,284,43*73
$GPGSV,4,4,15,25,10,223,26,32,10,314,33,40,11,118,36*43
$GPGLL,5240.13762,N,00131.44909,W,134057.00,A,A*7E
31856,$GPRMC,134058.00,A,5240.13798,N,00131.44834,W,2.037,44.,M,,*45
$GPGSA,A,3,24,12,15,19,17,10,23,22,13,14,32,25,1.49,0.71,1.31*05
$GPGSV,4,1,15,01,03,021,31,02,03,353,29,10,29,299,40,12,40,209,42*72
$GPGSV,4,2,15,13,20,140,48,14,11,051,31,15,40,170,45,17,
31856,30,064,37*75
$GPGSV,4,3,15,19,32,09053,35,23,28,251,34,24,84,284,39*7C
$GPGSV,4,4,15,25,10,223,32,32,10,314,33,40,11,118,29*48
$GPGLL,5240.13798,N,00131.44834,W,134058.00,A,A*7B
32874,$GPRMC,134059.00,A,5240.13835,N,00131.44,44.96,091125,,,A*41
$GSA,A,3,24,12,15,19,17,10,23,22,13,14,32,25,1.49,0.71,1.31*05
$GPGSV,4,1,15,01,03,021,24,02,03,353,29,10,29,299,30,12,40,209,41*72
$GPGSV,4,2,15,13,20,140,48,14,11,051,29,15,40,170,46,17,30,0
32874,64,35*7D
$GPGSV,4,3,15,19,32,092,403,35,23,28,251,33,24,84,284,41*75
$GPGSV,4,4,15,25,10,223,31,32,10,314,36,40,11,118,37*41
$GPGLL,5240.13835,N,00131.44766,W,134059.00,A,A*7A
33833,$GPRMC,134100.00,A,5240.13873,N,00131.44684,W,2.155,,,A*4C
$GPVTG,49.30,T44684,W,1,12,0.71,100.7,M,47.5,M,,*48
$GPGSA,A,3,24,12,15,19,17,10,23,22,13,14,32,25,1.49,0.71,1.31*05
$GPGSV,4,1,15,01,03,021,22,02,03,353,28,10,29,299,36,12,40,209,37*72
$GPGSV,
33833,4,2,15,13,20,140,45,14,11,051,36,17,30,064,36*7F
$GPGSV,4,3,15,19,32,092,42,22,27,053,36,23,28,251,33,24,84,284,40*75
$GPGSV,4,4,15,25,10,223,30,32,10,314,34,40,11,118,38*4D
$GPGLL,5240.13873,N,00131.44684,W,134100.00,A,A*78
34853,$GPRMC,134101.00,A,5240.13907,N,00131.44614,W,1.940,48.GGA,134101.00,5240.13907,N,00131.44614,W,1,12,0.71,100.9,M,47.5,M,,*4C
$GPGSA,A,3,24,12,15,19,17,10,23,22,13,14,32,25,1.49,0.71,1.31*05
$GPGSV,4,1,15,01,03,021,23,02,03,353,26,10,29,299,38,12,40,209,
34853,30*74
$GPGSV,4,2,15,13,20,140,39,14,40,170,42,17,30,064,36*71
$GPGSV,4,3,15,19,32,092,41,22,27,053,33,23,28,251,32,24,84,284,37*72
$GPGSV,4,4,15,25,10,223,25,32,10,314,34,40,11,118,31*40
$GPGLL,5240.13907,N,00131.44614,W,134101.00,A,A*72
35846,$GPRMC,134102.00,A,5240.13956,N,00131.44548,W,2.474,42.85,091125,,,A*48
5,T,,M,2.474,N,4.582,K,.7,M,47.5,M,,*4F
$GPGSA,A,3,24,12,15,19,17,10,23,22,13,14,32,25,1.49,0.71,1.31*05
$GPGSV,4,1,15,01,03,021,35,02,03,353,25,10,29,299,29,12,40,209,35*75
$GPGSV,
35846,4,2,15,13,20,140,42,14,11,051,314,17,30,064,33*7A
$GPGSV,4,3,15,19,32,092,37,22,27,053,31,23,28,251,28,24,84,284,40*7A
$GPGSV,4,4,15,25,10,223,24,32,10,314,30,40,11,118,30*44
$GPGLL,5240.13956,N,00131.44548,W,134102.00,A,A*7F
36858,$GPRMC,134103.00,A,5240.14012,N,4515,W,1.997,29.96,09110,5240.14012,N,00131.44515,W,1,12,0.71,100.7,M,47.5,M,,*48
$GPGSA,A,3,24,12,15,19,17,10,23,22,13,14,32,25,1.49,0.71,1.31*05
$GPGSV,4,1,15,01,03,021,30,02,03,353,31,10,29,299,30,12,40,209,29*70
$GPGS
36858,V,4,2,15,13,20,140,36,14,11,051,7,17,30,064,37*7C
$GPGSV,4,3,15,19,32,092,39,22,27,053,32,23,28,251,28,24,84,284,34*74
$GPGSV,4,4,15,25,10,223,23,32,10,314,25,40,11,118,32*45
$GPGLL,5240.14012,N,00131.44515,W,134103.00,A,A*78
37861,$GPRMC,134104.00,A,5240.14059,N,1.44471,W,1.937,30.62,0*4C
$GPGSA,A,3,24,12,15,19,17,10,23,22,13,14,32,25,1.49,0.71,1.31*05
$GPGSV,4,1,15,01,03,021,31,02,03,353,30,10,29,299,31,12,40,209,29*71
$GPGSV,4,2,15,13,20,140,39,14,11,051,35,15,40,170,39,17,30,0
37861,64,40*7C
$GPGSV,4,3,15,19,32,0953,36,23,28,251,27,24,84,284,36*70
$GPGSV,4,4,15,25,10,223,21,32,10,314,29,40,11,118,34*4D
$GPGLL,5240.14059,N,00131.44471,W,134104.00,A,A*73
38870,$GPRMC,134105.00,A,5240.14109,N,,2.247,29.73,091125,,,A,00131.44418,W,1,12,0.71,101.0,M,47.5,M,,*4F
$GPGSA,A,3,24,12,15,19,17,10,23,22,13,14,32,25,1.49,0.71,1.31*05
$GPGSV,4,1,15,01,03,021,24,02,03,353,24,10,29,299,35,12,40,209,33*7F
$GPGSV,4,2,15,13,20
38870,,140,41,14,11,051,36,15,40,170,4,37*7F
$GPGSV,4,3,15,19,32,092,32,22,27,053,34,23,28,251,27,24,84,284,40*75
$GPGSV,4,4,15,25,10,223,20,32,10,314,35,40,11,118,34*41
$GPGLL,5240.14109,N,00131.44418,W,134105.00,A,A*79
39766,$GPRMC,134106.00,A,5240.14147,N,00131.44371,W,1.432,31.55,091125,,,A*47
$GPVTG,31.55,T,,M,1.432,N,2.653,K,A*09
$GPGGA,134106.00,5240.14147,N,00131.44371,W,1,12,0.71,100.8,M,47.5,M,,*47
$GPGSA,A,3,24,12,15,19,17,10,23,22,13,14,32,25,1.49,0.71,1.31*05
$G
39766,PGSV,4,1,15,01,03,021,25,02,03,353,2299,35,12,40,209,29*75
,15,40,170,41,17,30,064,38*74
$GPGSV,4,3,15,19,32,092,41,22,27,053,31,23,28,251,26,24,84,284,41*74
$GPGSV,4,4,15,25,10,223,19,32,10,314,32,40,11,118,36*4E
$GPGLL,5240.14147,N,00131.44371,W,13410
39766,6.00,A,A*78
40741,$GPRMC,134107.00,A,5240.14177,N,00131.44326,W,1.596,41.11,091125,,,A*4F
$GPVTG,41.11,T,,M,1.596,N,2.957,K,A*0A
$GPGGA,134107.00,5240.14177,N,00131.44326,W,1,12,0.71,100.6,M,47.5,M,,*49
$GPGSA,A,3,24,12,15,19,17,10,23,22,13,14,32,25,1.49,0.71,1.31*05
$G
40741,PGSV,4,1,15,01,03,021,24,02,03,3,299,36,12,40,209,26*78
$GPGSV,4,2,15,13,20,140,45,14,11,051,29,15,40,170,43,17,30,064,36*76
$GPGSV,4,3,15,19,32,092,40,22,27,053,33,23,28,251,27,24,84,284,39*79
$GPGSV,4,4,15,25,10,223,20,32,10,314,35,40,11,118,33*46
$G
40741,PGLL,5240.14177,N,00131.44326,W,,A*78
41695,$GPRMC,134108.00,A,5240.14211,N,00131.44278,W,1.598,42.814D
$GPVTG,42.81,T,,M,1.598,N,2.960,K,A*0A
$GPGGA,134108.00,5240.14211,N,00131.44278,W,1,12,0.71,100.6,M,47.5,M,,*4F
$GPGSA,A,3,24,12,15,19,17,10,23,22,13,14,32,25,1.49,0.71,1.31*05
$GPGSV,4,1,15,
41695,01,03,020,24,02,03,353,25,10,29,299,09,34*7A
$GPGSV,4,2,15,13,20,140,39,14,11,051,28,15,40,170,39,17,30,064,31*76
$GPGSV,4,3,15,19,32,092,26,22,27,053,29,23,28,251,26,24,84,284,37*7D
$GPGSV,4,4,15,25,10,223,22,32,10,314,34,40,11,118,29*4E
$GPGLL,5240.1
41695,4211,N,00131.44278,W,134108.00,A,A*7
42872,$GPRMC,134109.00,A,5240.14232,N,00131.44248,41.21,091125,,,A*4D
$GGPGGA,134109.00,5240.14232,N,00131.44248,W,1,12,0.71,100.7,M,47.5,M,,*4D
$GPGSA,A,3,24,12,15,19,17,10,23,22,13,14,32,25,1.49,0.71,1.31*05
$GPGSV,4,1,15,01,03,020,29,02,03,352,26,10,29,299
42872,,38,12,40,209,33*7D
$GPGSV,4,2,0,35,14,11,051,27,15,40,170,42,17,30,064,20*79
$GPGSV,4,3,15,19,32,092,33,22,27,053,28,23,28,251,30,24,84,284,39*71
$GPGSV,4,4,15,25,10,223,22,32,10,314,33,40,11,118,32*43
$GPGLL,5240.14232,N,00131.44248,W,134109.00,A,A*7
42872,D
43867,$GPRMC,134110.00,A,5240.14237,N,0,W,0.097,,091125,,,A*6GA,134110.00,5240.14237,N,00131.44240,W,1,12,0.71,100.7,M,47.5,M,,*48
$GPGSA,A,3,24,12,15,19,17,10,23,22,13,14,32,25,1.49,0.71,1.31*05
$GPGSV,4,1,15,01,03,020,28,02,03,352,25,10,29,299,39,12,40,209,3
43867,1*7C
$GPGSV,4,2,15,13,20,140,4215,40,170,42,17,30,064,251,28,24,84,284,35*7E
$GPGSV,4,4,15,25,10,223,24,32,10,314,38,40,11,118,31*4D
$GPGLL,5240.14237,N,00131.44240,W,134110.00,A,A*78
44796,$GPRMC,134111.00,A,5240.14235,N,,W,0.178,,091125,,,A*62
$GPVTG,,T,,M,0.178,N,0.329,K,A*25
$GPGGA,134111.00,5240.14235,N,00131.44237,W,1,12,0.71,100.7,M,47.5,M,,*4B
$GPGSA,A,3,24,12,15,19,17,10,23,22,13,14,32,25,1.49,0.71,1.31*05
$GPGSV,4,1,14,01,03,020
44796,,27,02,03,352,24,10,29,299,44,12,40,$GPGSV,4,2,14,13,20,140,44,14,11,051,20,15,40,170,45,17,30,064,28*76
$GPGSV,4,3,14,19,32,092,29,22,27,053,26,23,28,251,28,24,84,284,40*72
$GPGSV,4,4,14,25,10,223,26,32,10,314,42*7D
$GPGLL,5240.14235,N,00131.44237,W,13
44796,4111.00,A,A*7B
45843,$GPRMC,134112.00,A,5240.14235,N,00131.44221,W,0.434,,091125,,,A*6B
$GPVTG,,T,,,0.804,K,A*2C
$GPGGA,111,0.73,100.7,M,47.5,M,,*4E
$GPGSA,A,3,24,12,15,19,10,23,22,13,14,32,25,,1.50,0.73,1.31*09
$GPGSV,4,1,14,01,03,020,28,02,03,352,24,10,29,299,42,12,40,20
45843,9,42*74
$GPGSV,4,2,14,13,20,1401,22,15,40,170,42,17,30,064,*7C
$GPGSV,4,3,14,19,32,092,28,22,27,053,27,23,28,251,37,24,84,284,31*7A
$GPGSV,4,4,14,25,10,223,32,32,10,314,41*7B
$GPGLL,5240.14235,N,00131.44221,W,134112.00,A,A*7F
46797,$GPRMC,134113.00,A,5240.14237,N,W,0.372,,091125,,,A*6A
$GPVTG,,T,,M,0.372,N,0.689,K,A*22
$GPGGA,134113.00,5240.14237,N,00131.44204,W,1,12,0.71,100.6,M,47.5,M,,*4A
$GPGSA,A,3,24,12,15,19,17,10,23,22,13,14,32,25,1.49,0.71,1.31*05
$GPGSV,4,1,14,01,03,020,
46797,27,02,03,352,23,10,29,299,32,12,
$GPGSV,4,2,14,13,20,1064,31*70
$GPGSV,4,3,14,19,32,092,35,22,27,053,29,23,28,251,35,24,84,284,33*78
$GPGSV,4,4,14,25,10,223,34,32,10,314,38*73
$GPGLL,5240.14237,N,00131.44204,W,134113.00,A,A*7B
47790,$GPRMC,134114.00,A,5240.14255,N,,W,0.856,349.70,091125,,A*36
$GPGGA,134114.00,5240.14255,N,00131.44213,W,1,12,0.71,100.4,M,47.5,M,,*4D
$GPGSA,A,3,24,12,15,19,17,10,23,22,13,14,32,25,1.49,0.71,1.31*05
$GPGSV,4,1,14,01,03,020,27,02,03,352,21,10,29,299,38,
47790,12,40,209,45*74
$GPGSV,4,2,14,1,14,11,051,23,15,40,170,47,17,30,064,34*7D
$GPGSV,4,3,14,19,32,092,36,22,27,053,21,23,28,251,39,24,84,284,39*75
$GPGSV,4,4,14,25,10,223,31,32,10,314,40*79
$GPGLL,5240.14255,N,00131.44213,W,134114.00,A,A*7E
48806,$GPRMC,134115.00,A,5240.14261,N,00131.44231,W,0.347,,,,A*6F
$GPVTG,,T,,M,0.347,N,0.643,K,A*22
$GPGGA,134115.00,5240.14261,N,00131.44231,W,1,12,0.71,100.3,M,47.5,M,,*4C
$GPGSA,A,3,24,12,15,19,17,10,23,22,13,14,32,25,1.49,0.71,1.31*05
$GPGSV,4,1,14,01,03
48806,,020,32,02,03,352,22,10,29,299,438*72
$GPGSV,4,2,14,13,20,140,44,14,11,051,24,15,40,170,41,17,30,064,31*7E
$GPGSV,4,3,14,19,32,092,34,22,27,053,28,23,28,251,45,24,84,284,40*7B
$GPGSV,4,4,14,25,10,223,34,32,10,314,36*7D
$GPGLL,5240.14261,N,00131.44231,W
48806,,134115.00,A,A*78
49846,$GPRMC,134116.00,A,5240.14258,N,00131.44236,W,0.160,,091125,,,A*66
$GPVTG,,T,,M,0.195,K,A*2A
$GPGGA,1341147.5,M,,*42
$GPGSA,A,3,24,15,19,17,10,23,22,13,14,32,25,,1.52,0.73,1.33*0C
$GPGSV,4,1,14,01,03,020,29,02,03,352,21,10,29,299,38,12,40,209,36*7E
$G
49846,PGSV,4,2,14,13,20,140,27,14,11,00,21,17,30,064,32*7A
$GPGSV,4,3,14,19,32,092,30,22,27,053,33,23,28,251,36,24,84,284,38*7E
$GPGSV,4,4,14,25,10,223,41,32,10,314,31*78
$GPGLL,5240.14258,N,00131.44236,W,134116.00,A,A*76
50851,$GPRMC,134117.00,A,5240.14255,N,0131.44232,W,0.134,,0914
$GPGGA,134117.00,5240.14255,N,00131.44232,W,1,12,0.78,100.0,M,47.5,M,,*40
$GPGSA,A,3,24,12,15,19,17,10,23,22,13,14,32,25,1.53,0.78,1.32*04
$GPGSV,4,1,14,01,03,020,,02,03,352,22,10,29,299,30,12,40,
50851,209,36*7E
$GPGSV,4,2,14,13,20,11,26,15,40,170,29,17,30,064,36*77
$GPGSV,4,3,14,19,32,092,36,22,27,053,31,23,28,251,41,24,84,284,39*7B
$GPGSV,4,4,14,25,10,223,46,32,10,314,34*7A
$GPGLL,5240.14255,N,00131.44232,W,134117.00,A,A*7E
51795,$GPRMC,134118.00,A,5240.14251,N,131.44230,W,0.148,,0911GA,134118.00,5240.14251,N,00131.44230,W,1,11,0.78,100.1,M,47.5,M,,*4B
$GPGSA,A,3,24,12,15,19,17,23,22,13,14,32,25,,1.53,0.78,1.32*05
$GPGSV,4,1,14,01,03,020,,02,03,352,21,10,29,299,,12,40,209,34*7C
51795,$GPGSV,4,2,14,13,20,140,34,14,11170,33,17,30,064,28*76
$GPGSV,4,3,14,19,32,092,35,22,27,053,31,23,28,251,38,24,84,284,28*76
$GPGSV,4,4,14,25,10,223,45,32,10,314,31*7C
$GPGLL,5240.14251,N,00131.44230,W,134118.00,A,A*77
52781,$GPRMC,134119.00,A,5240.14245,N,00131.44220,W,0.585,,091125,,,A*6D
$GPVTG,,T,,M,0.585,N,1.084,K,A*26
$GPGGA,134119.00,5240.14245,N,00131.44220,W,1,10,0.76,100.2,M,47.5,M,,*42
$GPGSA,A,3,12,19,17,10,23,22,13,14,32,25,,,2.17,0.76,2.03*0A
$GPGSV,4,1,14,01
52781,,03,020,,02,03,352,30,10,29,299,,39*74
$GPGSV,4,2,14,13,20,140,31,14,11,051,29,15,40,170,,17,30,064,29*7D
$GPGSV,4,3,14,19,32,092,39,22,27,053,31,23,28,251,42,24,84,284,*7D
$GPGSV,4,4,14,25,10,223,37,32,10,314,34*7C
$GPGLL,5240.14245,N,00131.44220,W,13
52781,4119.00,A,A*72
53694,$GPRMC,134120.00,A,5240.14229,N,00131.44160,W,1.804,73.27,091125,,,A*40
$GPVTG,73.27,T,,M,1.804,N,3.341,K,A*04
$GPGGA,134120.00,5240.14229,N,00131.44160,W,1,12,0.71,100.2,M,47.5,M,,*40
$GPGSA,A,3,24,12,15,19,17,10,23,22,13,14,32,25,1.49,0.71,1.31*05
$G
53694,PGSV,4,1,14,01,03,020,05,02,03,3,299,44,12,40,209,35*7D
$GPGSV,4,2,14,13,20,140,42,14,11,051,29,15,40,170,41,17,30,064,26*73
$GPGSV,4,3,14,19,32,092,32,22,27,053,34,23,28,251,36,24,84,284,36*75
$GPGSV,4,4,14,25,10,223,26,32,10,314,42*7D
$GPGLL,5240.142
53694,29,N,00131.44160,W,134120.00,A,A
54864,$GPRMC,134121.00,A,5240.14219,N,W,2.170,83.46,091125,,,34121.00,5240.14219,N,00131.44073,W,1,12,0.71,100.0,M,47.5,M,,*43
$GPGSA,A,3,24,12,15,19,17,10,23,22,13,14,32,25,1.49,0.71,1.31*05
$GPGSV,4,1,14,01,03,020,27,02,03,352,24,10,29,299,36,12,40,209,40*7A
54864,$GPGSV,4,2,14,13,20,140,33,14,0,170,36,17,30,064,41*7,23,28,251,27,24,84,284,38*7E
$GPGSV,4,4,14,25,10,223,32,32,10,314,36*7B
$GPGLL,5240.14219,N,00131.44073,W,134121.00,A,A*74
55807,$GPRMC,134122.00,A,5240.14229,N,W,1.793,80.34,091125,,,GA,134122.00,5240.14229,N,00131.43996,W,1,12,0.71,100.3,M,47.5,M,,*45
$GPGSA,A,3,24,12,15,19,17,10,23,22,13,14,32,25,1.49,0.71,1.31*05
$GPGSV,4,1,14,01,03,020,21,02,03,352,29,10,29,299,44,12,40,209,3
55807,3*70
$GPGSV,4,2,14,13,20,140,40,15,40,170,41,17,30,064,36*78
$GPGSV,4,3,14,19,32,092,35,22,27,053,36,23,28,251,32,24,84,284,35*77
$GPGSV,4,4,14,25,10,223,27,32,10,314,46*78
$GPGLL,5240.14229,N,00131.43996,W,134122.00,A,A*71
56821,$GPRMC,134123.00,A,5240.14246,N,00131.43923,W,1.732,74.53,091125,,,A,74.53,T,,M,1.732,N,3.207,K,A*09
$GPGGA,134123.00,5240.14246,N,00131.43923,W,1,12,0.71,100.3,M,47.5,M,,*43
$GPGSA,A,3,24,12,15,19,17,10,23,22,13,14,32,25,1.49,0.71,1.31*05
$GPGSV,4,1,14
56821,,01,03,020,30,02,03,352,28,10,2940,209,33*71
$GPGSV,4,2,14,13,20,140,34,14,10,051,30,15,40,170,42,17,30,064,30*7F
$GPGSV,4,3,14,19,32,092,31,22,27,053,28,23,28,251,33,24,84,284,35*7D
$GPGSV,4,4,14,25,10,223,32,32,10,314,34*79
$GPGLL,5240.14246,N,00131.
56821,43923,W,134123.00,A,A*77
57704,$GPRMC,134124.00,A,5240.14258,N,00131.43859,W,1.445,76.00,091125,,,A*4F
$GPVTG,76.00,T,,M,1.445,N,2.677,K,A*0C
$GPGGA,134124.00,5240.14258,N,00131.43859,W,1,12,0.71,100.5,M,47.5,M,,*41
$GPGSA,A,3,24,12,15,19,17,10,23,22,13,14,32,25,1.49,0.71,1.31*05
$G
57704,PGSV,4,1,14,01,03,020,22,02,03,399,42,12,40,209,27*78
$GPGSV,4,2,14,13,20,140,41,14,10,051,35,15,40,170,32,17,30,064,30*7F
$GPGSV,4,3,14,19,32,092,34,22,27,053,33,23,28,251,39,24,84,284,38*75
$GPGSV,4,4,14,25,10,223,31,32,10,314,36*78
$GPGLL,5240.14258
57704,,N,00131.43859,W,134124.00,A,A*7
58853,$GPRMC,134125.00,A,5240.14276,N,0131.43777,W,2.187,71.934125.00,5240.14276,N,00131.43777,W,1,12,0.71,100.6,M,47.5,M,,*4C
$GPGSA,A,3,24,12,15,19,17,10,23,22,13,14,32,25,1.49,0.71,1.31*05
$GPGSV,4,1,14,01,03,020,28,02,03,352,29,10,29,299,39,12,40,209,31*71
58853,$GPGSV,4,2,14,13,20,140,40,14,10,0,40,170,31,17,30,064,38*79
$GPGSV,4,3,14,19,32,092,25,22,27,053,31,23,28,251,36,24,84,284,35*75
$GPGSV,4,4,14,25,10,223,25,32,10,314,31*7A
$GPGLL,5240.14276,N,00131.43777,W,134125.00,A,A*7D
59866,$GPRMC,134126.00,A,5240.14301,N,00131.43671,,091125,,,A*40
$GPVTG,GPGSA,A,3,24,12,15,19,17,10,23,22,13,14,32,25,1.49,0.71,1.31*05
$GPGSV,4,1,14,01,03,020,20,02,03,352,18,10,29,299,36,12,40,209,31*74
$GPGSV,4,2,14,13,20,140,34,14,10,051,33,15,40,170,32,1
59866,7,30,064,28*72
$GPGSV,4,3,14,1922,27,053,33,23,28,251,31,24,84,284,32*75
$GPGSV,4,4,14,25,10,223,26,32,10,314,31*79
$GPGLL,5240.14301,N,00131.43671,W,134126.00,A,A*78
60809,$GPRMC,134127.00,A,5240.14322,N,00131.43575,W,2.090,71.37,091125,,,A*4F
$GPVTG,71.37,T,,M,2.090,N,3.871,K,A*09
$GPGGA,134127.00,5240.14322,N,00131.43575,W,1,12,0.71,100.7,M,47.5,M,,*4F
$GPGSA,A,3,24,12,15,19,17,10,23,22,13,14,32,25,1.49,0.71,1.31*05
$G
60809,PGSV,4,1,14,01,03,020,21,02,03,3299,29,12,40,209,30*77
$GPGSV,4,2,14,13,20,140,24,14,10,051,28,15,40,170,26,17,30,064,32*77
$GPGSV,4,3,14,19,33,091,35,22,27,053,36,23,28,251,26,24,84,284,27*73
$GPGSV,4,4,14,25,10,223,23,32,10,314,24*78
$GPGLL,5240.1432
60809,2,N,00131.43575,W,134127.00,A,A*
61721,$GPRMC,134128.00,A,5240.14345,N,00131.43494,W,1.869,69.91,091125,,,A*47
$GPVTG,69.91,T,,M,1.869,N,3.462,K,A*0F
$GPGGA,134128.00,5240.14345,N,00131.43494,W,1,12,0.71,100.7,M,47.5,M,,*4F
$GPGSA,A,3,24,12,15,19,17,10,23,22,13,14,32,25,1.49,0.71,1.31*05
$G
61721,PGSV,4,1,14,01,03,020,29,02,03,3,299,28,12,40,209,30*70
$GPGSV,4,2,14,13,20,140,22,14,10,051,34,15,40,170,27,17,30,064,39*76
$GPGSV,4,3,14,19,33,091,37,22,27,053,32,23,28,251,31,24,84,284,32*77
$GPGSV,4,4,14,25,10,223,22,32,10,314,23*7E
$GPGLL,5240.143
61721,45,N,00131.43494,W,134128.00,A,A
62849,$GPRMC,134129.00,A,5240.14364,N,00131.43420,W,1.747,,0934129.00,5240.14364,N,00131.43420,W,1,12,0.71,100.5,M,47.5,M,,*40
$GPGSA,A,3,24,12,15,19,17,10,23,22,13,14,32,25,1.49,0.71,1.31*05
$GPGSV,4,1,14,01,03,020,29,02,03,352,28,10,29,299,27,12,40,209,24*7A
62849,$GPGSV,4,2,14,13,20,140,30,14,,40,170,26,17,30,064,393,32,23,28,251,31,24,84,284,39*7E
$GPGSV,4,4,14,25,10,223,20,32,10,314,23*7C
$GPGLL,5240.14364,N,00131.43420,W,134129.00,A,A*72
63795,$GPRMC,134130.00,A,5240.14385,N,0131.43344,W,1.652,67.909
$GPGGA,134130.00,5240.14385,N,00131.43344,W,1,12,0.71,100.7,M,47.5,M,,*40
$GPGSA,A,3,24,12,15,19,17,10,23,22,13,14,32,25,1.49,0.71,1.31*05
$GPGSV,4,1,14,01,03,020,34,02,03,352,35,10,29,299,41,12,
63795,40,209,24*7A
$GPGSV,4,2,14,13,2,10,051,42,15,40,170,37,17,30,064,39*77
$GPGSV,4,3,14,19,33,091,41,22,26,053,41,23,28,250,31,24,84,284,35*75
$GPGSV,4,4,14,25,10,223,30,32,10,314,37*78
$GPGLL,5240.14385,N,00131.43344,W,134130.00,A,A*70
64828,$GPRMC,134131.00,A,5240.14403,N,00131.43249,W,2.336,74.73,091125,,,A*4E4.73,T,,M,2.336,N,4.327,K,A*0C
$GPGGA,134131.00,5240.14403,N,00131.43249,W,1,11,0.78,100.7,M,47.5,M,,*4E
$GPGSA,A,3,24,12,15,19,17,10,23,22,13,14,32,,1.71,0.78,1.52*05
$GPGSV,4,1,14,
64828,01,03,020,39,02,03,352,37,10,29,299,09,30*7F
$GPGSV,4,2,14,13,20,140,35,14,10,051,40,15,40,170,31,17,30,064,40*7A
$GPGSV,4,3,14,19,33,091,41,22,26,053,40,23,28,250,27,24,84,284,36*70
$GPGSV,4,4,14,25,10,223,22,32,10,314,35*79
$GPGLL,5240.14403,N,00131.
64828,43249,W,134131.00,A,A*74
65706,$GPRMC,134132.00,A,5240.14428,N,00131.43166,W,2.174,69.87,091125,,,A*49
$GPVTG,69.87,T,,M,2.174,N,4.026,K,A*0D
$GPGGA,134132.00,5240.14428,N,00131.43166,W,1,11,0.80,100.5,M,47.5,M,,*4F
$GPGSA,A,3,24,12,15,19,17,10,23,22,13,14,25,,1.60,0.80,1.39*09
$GPG
65706,SV,4,1,14,01,03,020,36,02,03,352,26,12,40,209,33*7E
$GPGSV,4,2,14,13,20,140,34,14,10,051,42,15,40,170,32,17,30,064,41*7B
$GPGSV,4,3,14,19,33,091,44,22,26,053,43,23,28,250,31,24,84,284,28*7E
$GPGSV,4,4,14,25,10,223,23,32,10,314,*7E
$GPGLL,5240.14428,N,0
65706,0131.43166,W,134132.00,A,A*70
66856,$GPRMC,134133.00,A,5240.14455,N,00131.43084,W,1.876,71.34133.00,5240.14455,N,00131.43084,W,1,11,0.80,100.7,M,47.5,M,,*4B
$GPGSA,A,3,24,12,15,19,17,10,23,22,13,14,25,,1.60,0.80,1.39*09
$GPGSV,4,1,14,01,03,020,35,02,03,352,40,10,29,299,25,12,40,209,34*7A
66856,$GPGSV,4,2,14,13,20,140,37,14,10170,38,17,30,064,47*76
$GPGSV,4,3,14,19,33,091,44,22,26,053,43,23,28,250,25,24,84,284,28*7B
$GPGSV,4,4,14,25,10,223,23,32,10,314,25*79
$GPGLL,5240.14455,N,00131.43084,W,134133.00,A,A*76
67838,$GPRMC,134134.00,A,5240.14479,N,00131.43027,W,1.636,64.34,091125,,,A*48
$,,M,1.636,N,3.031,K,A*0,100.4,M,47.5,M,,*48
$GPGSA,A,3,24,12,15,19,17,10,23,22,13,14,25,,1.60,0.80,1.39*09
$GPGSV,4,1,14,01,03,020,42,02,03,352,44,10,29,299,25,12,40,209,23*78
$GP
67838,GSV,4,2,14,13,20,140,34,14,10,05170,31,17,30,064,41*78
$GPGSV,4,3,14,19,33,091,42,22,26,053,39,23,28,250,30,24,84,284,33*7E
$GPGSV,4,4,14,25,10,223,25,32,10,314,28*72
$GPGLL,5240.14479,N,00131.43027,W,134134.00,A,A*76
68749,$GPRMC,134135.00,A,5240.14493,N,00131.42969,W,1.469,74.11,091125,,,A*41
$GPVTG,74.11,T,,M,1.469,N,2.721,K,A*02
$GPGGA,134135.00,5240.14493,N,00131.42969,W,1,12,0.71,100.4,M,47.5,M,,*42
$GPGSA,A,3,24,12,15,19,17,10,23,22,13,14,32,25,1.49,0.71,1.31*05
$GPGSV,4,1,14,01,03,020,42,02,03,352,43,10,29,299,31,12,40,209,29*70
$GPGSV,4,2,14,13,20,140,38,14,10,051,40,15,40,170,37,17,30,064,40*71
$GPGSV,4,3,14,19,33,091,32,22,26,053,44,23,28,250,23,24,84,284,28*7B
$GPGSV,4,4,14,25,10,223,26,32,10,314,28*71
$GPG
68749,LL,5240.14493,N,00131.42969,W,13413571
69837,$GPRMC,134136.00,A,5240.14524,N,00131.42909,W,2.029,63.94,091125,,,A*63.94,T,,M,2.029,N,3.758,K,A*05
$GPGGA,134136.00,5240.14524,N,00131.42909,W,1,11,0.78,100.9,M,47.5,M,,*4D
$GPGSA,A,3,24,12,15,19,17,10,23,22,13,14,32,,1.71,0.78,1.52*05
$GPGSV,4,1,14,0
69837,1,03,020,41,02,03,352,38,10,29,299,209,38*7A
$GPGSV,4,2,148
$GPGSV,4,3,14,19,33,091,42,22,26,053,43,23,28,250,24,24,84,284,28*7C
$GPGSV,4,4,14,25,10,223,26,32,10,314,28*71
$GPGLL,5240.14524,N,00131.42909,W,134136.00,A,A*79
70823,$GPRMC,134137.00,A,5240.14566,N,00131.42832,W,2.240,125,,,A*47
$GPVTG,54.95,T,,M,2.240,N,4.148,K,A*0D
$GPGGA,134137.00,5240.14566,N,00131.42832,W,1,12,0.71,101.2,M,47.5,M,,*43
$GPGSA,A,3,24,12,15,19,17,10,23,22,13,14,32,25,1.49,0.71,1.31*05
$GPGSV,4,1,
70823,14,01,03,020,41,02,03,352,42,10,29,29,36*79
$GPGSV,4,2,14,7,30,064,44*78
$GPGSV,4,3,14,19,33,091,39,22,26,053,41,23,28,250,25,24,84,284,27*7C
$GPGSV,4,4,14,25,10,223,26,32,10,314,28*71
$GPGLL,5240.14566,N,00131.42832,W,134137.00,A,A*77
71817,$GPRMC,134138.00,A,5240.14601,N,00131.42712,W,2.921,5,,,A*47
$GPVTG,60.34,T,,M,2.921,N,5.409,K,A*0C
$GPGGA,134138.00,5240.14601,N,00131.42712,W,1,12,0.71,101.3,M,47.5,M,,*42
$GPGSA,A,3,24,12,15,19,17,10,23,22,13,14,32,25,1.49,0.71,1.31*05
$GPGSV,4,1,14
71817,,01,03,020,43,02,03,352,42,10,29,29909,25*7F
$GPGSV,4,2,147,30,064,37*7D
$GPGSV,4,3,14,19,33,091,35,22,26,053,36,23,28,250,23,24,84,284,31*71
$GPGSV,4,4,14,25,10,223,26,32,10,314,26*7F
$GPGLL,5240.14601,N,00131.42712,W,134138.00,A,A*77
72822,$GPRMC,134139.00,A,5240.14628,N,00131.42609,W,2.201,63.74,09112PVTG,63.74,T,,M,2.201,N,4.076,K,A*0F
$GPGGA,134139.00,5240.14628,N,00131.42609,W,1,11,0.78,101.0,M,47.5,M,,*4A
$GPGSA,A,3,24,12,15,19,17,10,23,22,13,14,32,,1.71,0.78,1.52*05
$GPGSV,4,1,14,01
72822,,03,020,43,02,03,352,43,10,29,299,2426*7A
$GPGSV,4,2,14,13,20,140,37,14,10,051,41,15,40,170,38,17,30,064,36*71
$GPGSV,4,3,14,19,33,091,39,22,26,053,39,23,28,250,25,24,84,284,37*72
$GPGSV,4,4,14,25,10,223,,32,11,314,26*7A
$GPGLL,5240.14628,N,00131.42609
72822,,W,134139.00,A,A*76
73860,$GPRMC,134140.00,A,5240.14650,N,29,W,1.816,66.30,0911254B
$GPGSA,A,3,24,12,15,19,17,10,23,22,13,14,32,,1.71,0.78,1.52*05
$GPGSV,4,1,14,01,03,020,44,02,03,352,37,10,29,299,25,12,40,209,31*79
$GPGSV,4,2,14,13,20,140,34,14,10,051,36,15,40,170,32,17,30,064,
73860,28*77
$GPGSV,4,3,14,19,33,091,2,23,28,250,25,24,84,284,28*7D
$GPGSV,4,4,14,25,10,223,26,32,11,314,26*7E
$GPGLL,5240.14650,N,00131.42529,W,134140.00,A,A*76
74824,$GPRMC,134141.00,A,5240.14666,N,00131.42464,W,1.380,65.75,091125,VTG,65.75,T,,M,1.380,N,2.557,K,A*03
$GPGGA,134141.00,5240.14666,N,00131.42464,W,1,11,0.78,101.0,M,47.5,M,,*46
$GPGSA,A,3,24,12,15,19,17,10,23,22,13,14,32,,1.71,0.78,1.52*05
$GPGSV,4,1,14,0
74824,1,03,020,41,02,03,352,42,10,29,2209,26*79
$GPGSV,4,2,14,13,20,140,37,14,10,051,42,15,40,170,37,17,30,064,38*73
$GPGSV,4,3,14,19,33,091,28,22,26,053,37,23,28,250,30,24,84,284,32*7D
$GPGSV,4,4,14,25,10,223,23,32,11,314,25*78
$GPGLL,5240.14666,N,00131.424
74824,64,W,134141.00,A,A*7A
75881,$GPRMC,134142.00,A,5240.14694,N,00131.42440,091125,,,A*46
$GPVTG,57,10,23,22,13,14,32,,1.71,0.78,1.52*05
$GPGSV,4,1,14,01,03,020,43,02,03,352,42,10,29,299,25,12,40,209,32*7F
$GPGSV,4,2,14,13,20,140,34,14,10,051,41,15,40,170,38,17,30,064,38*7C
$GPGSV,4,
75881,3,14,19,33,091,32,22,26,053,33,2,84,284,36*7E
$GPGSV,4,4,14,25,10,223,26,32,11,314,25*7D
$GPGLL,5240.14694,N,00131.42440,W,134142.00,A,A*72
76857,$GPRMC,134143.00,A,5240.14729,N,388,W,2.081,50.41,09112M,,*42
$GPGSA,A,3,24,12,15,19,17,10,23,22,13,14,32,,1.71,0.78,1.52*05
$GPGSV,4,1,14,01,03,020,44,02,03,352,42,10,29,299,26,12,40,209,26*7E
$GPGSV,4,2,14,13,20,140,34,14,10,051,40,15,40,170,28,17,30,
76857,064,36*72
$GPGSV,4,3,14,19,33,091,4053,36,23,28,250,22,24,84,284,27*74
$GPGSV,4,4,14,25,10,223,26,32,11,314,24*7C
$GPGLL,5240.14729,N,00131.42388,W,134143.00,A,A*77
77812,$GPRMC,134144.00,A,5240.14764,N,0013312,52.79,091125,,,A*4A14764,N,00131.42299,W,1,11,0.78,100.6,M,47.5,M,,*43
$GPGSA,A,3,24,12,15,19,17,10,23,22,13,14,32,,1.71,0.78,1.52*05
$GPGSV,4,1,14,01,03,020,44,02,03,352,42,10,29,299,26,12,40,209,27*7F
$GPGSV,4,2
77812,,14,13,20,140,33,14,10,051,40,157,30,064,29*77
$GPGSV,4,3,14,19,33,091,35,22,26,053,29,23,28,250,28,24,84,284,32*77
$GPGSV,4,4,14,25,10,223,,32,11,314,30*7D
$GPGLL,5240.14764,N,00131.42299,W,134144.00,A,A*78
78820,$GPRMC,134145.00,A,5240.14804,N,00131.42208,W,2.447,57.4,,A*4A
$GPVTG,57.48,T,,M,2.447,N,4.532,K,A*06
$GPGGA,134145.00,5240.14804,N,00131.42208,W,1,11,0.78,100.8,M,47.5,M,,*4D
$GPGSA,A,3,24,12,15,19,17,10,23,22,13,14,32,,1.71,0.78,1.52*05
$GPGSV,4,1,14
78820,,01,03,020,44,02,03,352,44,10,29,2990,209,31*7F
$GPGSV,4,2,14,13,20,140,36,14,10,051,41,15,40,170,31,17,30,064,37*78
$GPGSV,4,3,14,19,33,091,39,22,26,053,29,23,28,250,18,24,84,284,26*7D
$GPGSV,4,4,14,25,10,223,,32,11,314,30*7D
$GPGLL,5240.14804,N,00131
78820,.42208,W,134145.00,A,A*78
79753,$GPRMC,134146.00,A,5240.14825,N,00131.42110,W,2.297,64.59,091125GPVTG,64.59,T,,M,2.297,N,4.255,K,A*0B
$GPGGA,134146.00,5240.14825,N,00131.42110,W,1,11,0.78,100.2,M,47.5,M,,*4D
$GPGSA,A,3,24,12,15,19,17,10,23,22,13,14,32,,1.71,0.78,1.52*05
$GPGSV,4,1,14,
79753,01,03,020,43,02,03,352,38,10,29,0,209,30*72
$GPGSV,4,2,14,13,20,140,37,14,10,051,37,15,40,170,31,17,30,064,27*79
$GPGSV,4,3,14,19,33,091,39,22,26,053,40,23,28,250,28,24,84,284,28*7F
$GPGSV,4,4,14,25,10,223,,32,11,314,29*75
$GPGLL,5240.14825,N,00131.421
79753,10,W,134146.00,A,A*72
80849,$GPRMC,134147.00,A,5240.14852,N,31.42064,W,1.421,59.74,147.00,5240.14852,N,00131.42064,W,1,11,0.78,100.2,M,47.5,M,,*4E
$GPGSA,A,3,24,12,15,19,17,10,23,22,13,14,32,,1.71,0.78,1.52*05
$GPGSV,4,1,14,01,03,020,45,02,03,352,43,10,29,299,26,12,40,209,21*79
$G
80849,PGSV,4,2,14,13,20,140,39,14,10,051,3,32,17,30,064,32*71
$GPGSV,4,3,14,19,33,091,37,22,26,053,37,23,28,250,21,24,84,284,32*73
$GPGSV,4,4,14,25,10,223,29,32,11,314,27*70
$GPGLL,5240.14852,N,00131.42064,W,134147.00,A,A*71
81832,$GPRMC,134148.00,A,5240.14864,N,00131.41991,W,1.401,69.20,091
$GPVTG,69.20,T,,M,1.4,11,0.78,99.9,M,47.5,M,,*7E
$GPGSA,A,3,24,12,15,19,17,10,23,22,13,14,32,,1.71,0.78,1.52*05
$GPGSV,4,1,14,01,03,020,45,02,03,352,41,10,29,299,26,12,40,209,30*7B
$GPGSV,4,
81832,2,14,13,20,140,40,14,10,051,39,17,30,064,27*7F
$GPGSV,4,3,14,19,33,091,38,22,26,053,35,23,28,250,28,24,84,284,35*70
$GPGSV,4,4,14,25,10,223,,32,11,314,27*7B
$GPGLL,5240.14864,N,00131.41991,W,134148.00,A,A*7B
82836,$GPRMC,134149.00,A,5240.14894,N,00131.41950,W,1.497,57.87,091125,,,A*47
$GPVT,,M,1.497,N,2.772,K,A*0B
$GPGGA,134149.00,5240.14894,N,00131.41950,W,1,11,0.78,99.7,M,47.5,M,,*73
$GPGSA,A,3,24,12,15,19,17,10,23,22,13,14,32,,1.71,0.78,1.52*05
$GPGSV,4,1,14,
82836,01,03,020,45,02,03,352,40,10,29,09,27*7C
$GPGSV,4,2,14,13,20,140,33,14,10,051,40,15,40,170,36,17,30,064,31*7D
$GPGSV,4,3,14,19,33,091,38,22,26,053,30,23,28,250,27,24,84,284,31*7E
$GPGSV,4,4,14,25,10,223,,32,11,314,31*7C
$GPGLL,5240.14894,N,00131.41950,
82836,W,134149.00,A,A*78
83722,$GPRMC,134150.00,A,5240.14920,N,00131.4111,091125,,,A*49
$GPVTG,60.11,T,,M,1.651,N,3.058,K,A*06
$GPGGA,134150.00,5240.14920,N,00131.41896,W,1,11,0.78,99.4,M,47.5,M,,*7D
$GPGSA,A,3,24,12,15,19,17,10,23,22,13,14,32,,1.71,0.78,1.52*05
$GPGSV,4,1,14,01,03,
83722,020,44,02,03,352,42,10,29,299,25*78
$GPGSV,4,2,14,13,20,140,34,14,10,051,38,15,40,170,29,17,30,064,34*7E
$GPGSV,4,3,14,19,33,091,33,22,26,053,35,23,28,250,28,24,84,284,27*78
$GPGSV,4,4,14,25,10,223,25,32,11,314,26*7D
$GPGLL,5240.14920,N,00131.41896,W,1
83722,34150.00,A,A*75
84739,$GPRMC,134151.00,A,5240.14936,N,00131.41805,W,2.200,72.83,091125,,,A*4E
$GPVTG,72.83,T,,M,2.200,N,4.074,K,A*04
$GPGGA,134151.00,5240.14936,N,00131.41805,W,1,11,0.78,98.8,M,47.5,M,,*7C
$GPGSA,A,3,24,12,15,19,17,10,23,22,13,14,32,,1.71,0.78,1.52*05
$GPGS
84739,V,4,1,15,01,03,020,43,02,03,352,9,24,12,40,209,27*78
$GPGSV,4,2,15,13,20,140,31,14,10,051,40,15,40,170,35,17,30,064,30*7C
$GPGSV,4,3,15,19,33,091,37,22,26,053,32,23,28,250,27,24,84,284,28*7A
$GPGSV,4,4,15,25,10,223,26,32,11,314,25,40,11,118,31*42
$GPGL
84739,L,5240.14936,N,00131.41805,W,13479
85728,$GPRMC,134152.00,A,5240.14956,N,00131.41704,W,1.951,66.11,091125,,,A*47
$GPVTG,66.11,T,,M,1.951,N,3.614,K,A*01
$GPGGA,134152.00,5240.14956,N,00131.41704,W,1,12,0.71,98.6,M,47.5,M,,*73
$GPGSA,A,3,24,12,15,19,17,10,23,22,13,14,32,25,1.49,0.71,1.31*05
$GP
85728,GSV,4,1,15,01,03,020,42,02,03,352,4499,24,12,40,209,28*73
$GPGSV,4,2,15,13,20,140,39,14,10,051,44,15,40,170,39,17,30,064,41*7A
$GPGSV,4,3,15,19,33,091,41,22,26,053,41,23,28,250,26,24,84,284,28*7E
$GPGSV,4,4,15,25,10,223,26,32,11,314,25,40,11,118,31*42
85728,$GPGLL,5240.14956,N,00131.41704,A,A*72
86786,$GPRMC,134153.00,A,5240.14971,N,00131.41650,W,0.938,67.12,091125,,,A*4F.12,T,,M,0.938,N,1.738,1.41650,W,1,12,0.71,98.2,M,47.5,M,,*73
$GPGSA,A,3,24,12,15,19,17,10,23,22,13,14,32,25,1.49,0.71,1.31*05
$GPGSV,4,1,15,01,03,020,44,02,03,352,42,10,29,299,25,12,
86786,40,209,28*72
$GPGSV,4,2,15,13,210,051,39,15,40,170,35,,22,26,053,38,23,28,250,25,24,84,284,29*7D
$GPGSV,4,4,15,25,10,223,27,32,11,314,25,40,11,118,34*46
$GPGLL,5240.14971,N,00131.41650,W,134153.00,A,A*76
87784,$GPRMC,134154.00,A,5240.14984,N,00131.41589,W,1.323,70.55,091125,,,A*41
$GPVTG,70.55,T,,M,1.323,N,2.450,K,A*0A
$GPGGA,134154.00,5240.14984,N,00131.41589,W,1,11,0.78,98.1,M,47.5,M,,*70
$GPGSA,A,3,24,12,15,19,17,10,23,22,13,14,32,,1.71,0.78,1.52*05
$GPGS
87784,V,4,1,15,01,03,020,44,02,03,352,43,126,12,40,209,27*7F
$GPGSV,4,2,15,13,20,140,37,14,10,051,39,15,40,170,38,17,30,064,37*7E
$GPGSV,4,3,15,19,33,091,36,22,26,053,40,23,28,250,25,24,84,284,33*76
$GPGSV,4,4,15,25,10,223,,32,11,314,25,40,11,118,33*44
$GPGL
87784,L,5240.14984,N,00131.41589,W,134154.
88861,$GPRMC,134155.00,A,5240.15014,N,508,W,2.054,59.33,09112*0A
$GPGGA,134155.00,5240.15014,N,00131.41508,W,1,11,0.78,98.2,M,47.5,M,,*7A
$GPGSA,A,3,24,12,15,19,17,10,23,22,13,14,32,,1.71,0.78,1.52*05
$GPGSV,4,1,15,01,03,020,43,02,03,352,43,10,29,299,25,12,40
88861,,209,33*7E
$GPGSV,4,2,15,13,20,51,41,15,40,170,32,17,30,064,36*79
$GPGSV,4,3,15,19,33,091,36,22,26,053,43,23,28,250,26,24,84,284,28*7C
$GPGSV,4,4,15,25,10,223,26,32,11,314,31,40,11,118,30*46
$GPGLL,5240.15014,N,00131.41508,W,134155.00,A,A*75
89799,$GPRMC,134156.00,A,5240.15051,N,00131.4135,59.62,091125,,,A*47
$GPVTG,59.62,T,,M,2.935,N,5.435,K,A*0F
$GPGGA,134156.00,5240.15051,N,00131.41405,W,1,10,0.86,97.7,M,47.5,M,,*7E
$GPGSA,A,3,24,12,15,19,17,10,23,22,13,14,,,1.89,0.86,1.69*0A
$GPGSV,4,1,15,01
89799,,03,020,43,02,03,352,42,10,29,299,2409,27*7B
$GPGSV,4,2,15,13,20,140,38,14,10,051,39,15,40,170,31,17,30,064,31*7E
$GPGSV,4,3,15,19,33,091,37,22,26,053,32,23,28,250,26,24,84,284,29*7A
$GPGSV,4,4,15,25,10,223,27,32,11,314,,40,11,118,31*44
$GPGLL,5240.150
89799,51,N,00131.41405,W,134156.00,A,A*7B
90873,$GPRMC,134157.00,A,5240.15080,N,00131.41305,4,091125,,,A*4D
$GPVTG5240.15080,N,00131.41305,W,1,10,0.86,98.2,M,47.5,M,,*7E
$GPGSA,A,3,24,12,15,19,17,10,23,22,13,14,,,1.89,0.86,1.69*0A
$GPGSV,4,1,15,01,03,020,45,02,03,352,42,10,29,299,25,12,40,209,26*7D
90873,$GPGSV,4,2,15,13,20,140,37,14,10,051170,31,17,30,064,39*74
$GPGSV,4,3,15,19,33,091,37,22,26,053,29,23,28,250,26,24,84,284,31*79
$GPGSV,4,4,15,25,10,223,25,32,11,314,27,40,11,118,35*47
$GPGLL,5240.15080,N,00131.41305,W,134157.00,A,A*71
91818,$GPRMC,134158.00,A,5240.15093,N,00131.41249,W,1.208,62.92,091$GPVTG,62.92,T,,M,1.208,N,2.238,K,A*02
$GPGGA,134158.00,5240.15093,N,00131.41249,W,1,10,0.86,97.8,M,47.5,M,,*7F
$GPGSA,A,3,24,12,15,19,17,10,23,22,13,14,,,1.89,0.86,1.69*0A
$GPGSV,4,1,15,01,03
91818,,020,44,02,03,352,44,10,29,299,24,12*7B
$GPGSV,4,2,15,13,2GPGSV,4,3,15,19,33,091,37,22,26,053,35,23,28,250,25,24,84,284,30*76
$GPGSV,4,4,15,25,10,223,27,32,11,314,,40,11,118,33*46
$GPGLL,5240.15093,N,00131.41249,W,134158.00,A,A*75
92822,$GPRMC,134159.00,A,5240.15108,N,00131.41191,W,1.172,64.75,091125,,,TG,64.75,T,,M,1.172,N,2.170,K,A*0C
$GPGGA,134159.00,5240.15108,N,00131.41191,W,1,10,0.86,97.7,M,47.5,M,,*74
$GPGSA,A,3,24,12,15,19,17,10,23,22,13,14,,,1.89,0.86,1.69*0A
$GPGSV,4,1,15,01,
92822,03,020,46,02,03,352,43,10,29,299,25,9,26*7F
$GPGSV,4,2,15,13,20,140,35,14,10,051,37,15,40,170,37,17,30,064,38*72
$GPGSV,4,3,15,19,33,091,34,22,26,053,43,23,28,250,23,24,84,284,33*71
$GPGSV,4,4,15,25,10,223,,32,11,314,,40,11,118,30*40
$GPGLL,5240.15108,
92822,N,00131.41191,W,134159.00,A,A*71
93865,$GPRMC,134200.00,A,5240.15144,N,0013W,2.536,55.41,091125,,,7E
$GPGSA,A,3,24,12,15,19,17,10,23,22,13,14,,,1.89,0.86,1.69*0A
$GPGSV,4,1,15,01,03,020,44,02,03,352,41,10,29,299,26,12,40,209,26*7C
$GPGSV,4,2,15,13,20,140,34,14,10,051,39,15,40,170,35,17,30,064,36*71
$GPGSV,4,3,15,19,33,091,35,22,26,053,41,23,28,250,22,24,84,284,31*71
$GPGSV,4,4,15,25,10,223,,32,11,314,30,40,11,118,31*42
$GPGLL,5240.15144,N,00131.41124,W,134200.00,A,A*78
94837,$GPRMC,134201.00,A,5240.15177,N,00131.40988,W,3.264,65.49,091125,,,A*42
$GPVTG,65.49,T,,M6.045,K,A*07
$GPGGA,134201.00,5240.15177,N,00131.40988,W,1,10,0.86,97.5,M,47.5,M,,*71
$GPGSA,A,3,24,12,15,19,17,10,23,22,13,14,,,1.89,0.86,1.68*0B
$GPGSV,4,1,15,01
94837,,03,020,45,02,03,352,41,10,29,299,269,31*7B
$GPGSV,4,2,15,7,30,064,35*7E
$GPGSV,4,3,15,19,33,091,34,22,26,053,42,23,28,250,23,24,84,284,31*72
$GPGSV,4,4,15,25,10,223,,32,11,314,,40,11,118,34*44
$GPGLL,5240.15177,N,00131.40988,W,134201.00,A,A*76
95843,$GPRMC,134202.00,A,5240.15199,N,00131.40882,W,2.145,67.39,091125,,G,67.39,T,,M,2.145,N,3.973,K,A*0A
$GPGGA,134202.00,5240.15199,N,00131.40882,W,1,10,0.86,97.3,M,47.5,M,,*7F
$GPGSA,A,3,24,12,15,19,17,10,23,22,13,14,,,1.89,0.86,1.68*0B
$GPGSV,4,1,15,01,03
95843,,020,46,02,03,352,40,10,29,299,26,127B
$GPGSV,4,2,15,13,20064,35*71
$GPGSV,4,3,15,19,33,091,37,22,26,053,40,23,28,250,24,24,84,284,26*72
$GPGSV,4,4,15,25,10,223,34,32,11,314,25,40,11,118,32*42
$GPGLL,5240.15199,N,00131.40882,W,134202.00,A,A*7E
96800,$GPRMC,134203.00,A,5240.15223,N,0013074,,091125,,,A*62
$GPVTG,,T,,M,1.074,N,1.988,K,A*29
$GPGGA,134203.00,5240.15223,N,00131.40844,W,1,10,0.86,97.3,M,47.5,M,,*76
$GPGSA,A,3,24,12,15,19,17,10,23,22,13,14,,,1.89,0.86,1.68*0B
$GPGSV,4,1,15,01,03,020,45,02
96800,,03,352,41,10,29,299,25,12,41,209,29,4,2,15,13,20,140,34,14,10,051,40,15,40,170,31,17,30,064,31*7C
$GPGSV,4,3,15,19,33,091,40,22,26,053,38,23,28,250,25,24,84,284,32*79
$GPGSV,4,4,15,25,10,223,27,32,11,314,,40,11,118,31*44
$GPGLL,5240.15223,N,00131.40844
96800,,W,134203.00,A,A*77
97829,$GPRMC,134204.00,A,5240.15241,N,00131.40794,W,0.846,,091125,,,A,T,,M,0.846,N,1.568,K,A0794,W,1,11,0.78,97.3,M,47.5,M,,*77
$GPGSA,A,3,24,12,15,19,17,10,23,22,13,14,32,,1.71,0.78,1.52*05
$GPGSV,4,1,15,01,03,020,45,02,03,352,42,10,29,299,24,12,41,209,29*72
97829,$GPGSV,4,2,15,13,20,140,40,14,10,170,36,17,30,064,35*7C
$GPGSV,4,3,15,19,33,091,36,22,26,053,38,23,28,250,25,24,84,284,33*79
$GPGSV,4,4,15,25,10,223,29,32,11,314,31,40,11,118,30*49
$GPGLL,5240.15241,N,00131.40794,W,134204.00,A,A*76
98808,$GPRMC,134205.00,A,5240.15262,N,00131.40730,W,1.659,5,,,A*4B
$GPVTG,64.56,T,,M,1.659,N,3.073,K,A*00
$GPGGA,134205.00,5240.15262,N,00131.40730,W,1,10,0.86,97.2,M,47.5,M,,*78
$GPGSA,A,3,24,12,15,19,17,10,23,22,13,14,,,1.89,0.86,1.68*0B
$GPGSV,4,1,15,01,0
98808,3,020,45,02,03,352,40,10,29,299,9,32*7B
$GPGSV,4,2,15,13,20,140,37,14,10,051,41,15,40,170,38,17,30,064,37*71
$GPGSV,4,3,15,19,33,091,39,22,26,053,42,23,28,250,26,24,84,284,29*73
$GPGSV,4,4,15,25,10,223,,32,11,314,26,40,11,118,34*40
$GPGLL,5240.15262,N,
98808,00131.40730,W,134205.00,A,A*78
99846,$GPRMC,134206.00,A,5240.15284,N,00131.40672,W,1.485,64.25,091125,,,A*40
$GP,1.485,N,2.751,K,A*01
,96.8,M,47.5,M,,*7F
$GPGSA,A,3,24,12,15,19,17,10,23,22,13,14,32,,1.71,0.78,1.52*05
$GPGSV,4,1,15,01,03,020,45,02,03,352,39,10,29,299,25,12,41,209,28*7E
$G
99846,PGSV,4,2,15,13,20,140,38,14,10,0,170,34,17,30,064,35*7C
$GPGSV,4,3,15,19,33,091,33,22,26,053,41,23,28,250,26,24,84,284,29*7A
$GPGSV,4,4,15,25,10,223,,32,11,314,31,40,11,118,30*42
$GPGLL,5240.15284,N,00131.40672,W,134206.00,A,A*74
100831,$GPRMC,134207.00,A,5240.15305,N,00131.40586,W,1.155,51.72,091125,,,A*4D
$,M,1.155,N,2.140,K,A*0B
$GPGGA,134207.00,5240.15305,N,00131.40586,W,1,11,0.78,97.3,M,47.5,M,,*74
$GPGSA,A,3,24,12,15,19,17,10,23,22,13,14,32,,1.71,0.78,1.52*05
$GPGSV,4,1,15,01,03
100831,,020,44,02,03,352,36,10,29,299,228*72
$GPGSV,4,2,15,13,20,140,33,14,10,051,36,15,39,170,28,17,30,064,31*7C
$GPGSV,4,3,15,19,33,091,41,22,26,053,35,23,28,250,28,24,84,284,30*7A
$GPGSV,4,4,15,25,10,223,,32,11,314,40,40,11,118,33*47
$GPGLL,5240.15305,N,00
100831,131.40586,W,134207.00,A,A*75
101728,$GPRMC,134208.00,A,5240.15324,N,0013W,0.989,56.26,091125,,,A*47
$GPVTG,56.26,T,,M,0.989,N,1.832,K,A*0A
$GPGGA,134208.00,5240.15324,N,00131.40524,W,1,11,0.82,97.9,M,47.5,M,,*7F
$GPGSA,A,3,24,12,15,19,17,10,23,22,13,14,32,,1.73,0.82,1.52*02
$GPGSV,4,1,15
101728,,01,03,020,40,02,03,352,34,10,2941,209,36*7A
$GPGSV,4,2,15,13,20,140,36,14,10,051,42,15,39,170,30,17,30,063,43*71
$GPGSV,4,3,15,19,33,091,42,22,26,053,42,23,28,250,29,24,84,284,37*7F
$GPGSV,4,4,15,25,10,223,,32,11,314,37,40,11,118,30*44
$GPGLL,5240.153
101728,24,N,00131.40524,W,134208.00,A,A
102759,$GPRMC,134209.00,A,5240.15325,N,00131.40484,W,0.406,,091125,,,A*6F
$GPVTG,,T,,M,0.406,N,0.751,K,A*22
$GPGGA,134209.00,5240.15325,N,00131.40484,W,1,11,0.78,97.8,M,47.5,M,,*70
$GPGSA,A,3,24,12,15,19,17,10,23,22,13,14,32,,1.71,0.78,1.52*05
$GPGSV,4,1,15,0
102759,1,03,020,30,02,03,352,38,10,29,299,2209,27*71
$GPGSV,4,2,15,13,20,140,32,14,10,051,43,15,39,170,28,17,30,063,44*7A
$GPGSV,4,3,15,19,33,091,42,22,26,053,44,23,28,250,27,24,84,284,41*76
$GPGSV,4,4,15,25,10,223,25,32,11,314,38,40,11,118,31*4D
$GPGLL,5240.15325,N,00131.40484,W,134209.00,A,A*7A
103826,$GPRMC,134210.00,A,5240.15319,N,00131.40463,W,0.257,,091125,,,A*63
,0.257,N,0.475,K,A*25
$GPGGA,134210.00,5240.15319,N,00131.40463,W,1,12,0.71,97.7,M,47.5,M,,*7B
$GPGSA,A,3,24,12,15,19,17,10,23,22,13,14,32,25,1.49,0.71,1.31*05
$GPGSV,4,1,15,01,03,020,3
103826,9,02,03,352,32,10,29,299,36,12,4
$GPGSV,4,2,15,13,20,1444*71
$GPGSV,4,3,15,19,33,091,43,22,26,053,46,23,28,250,32,24,84,284,37*70
$GPGSV,4,4,15,25,10,223,26,32,11,314,39,40,11,118,34*4A
$GPGLL,5240.15319,N,00131.40463,W,134210.00,A,A*74
104863,$GPRMC,134211.00,A,5240.15321,N,1.40454,W,0.010,,091125A,134211.00,5240.15321,N,00131.40454,W,1,12,0.71,97.8,M,47.5,M,,*7A
$GPGSA,A,3,24,12,15,19,17,10,23,22,13,14,32,25,1.49,0.71,1.31*05
$GPGSV,4,1,15,01,03,020,38,02,03,352,35,10,29,299,38,12,41,209,37*
104863,7A
$GPGSV,4,2,15,13,20,140,36,115,39,170,39,17,30,063,45*7E
$GPGSV,4,3,15,19,33,091,44,22,26,053,45,23,28,250,29,24,84,284,37*7E
$GPGSV,4,4,15,25,10,223,30,32,11,314,31,40,11,118,35*44
$GPGLL,5240.15321,N,00131.40454,W,134211.00,A,A*7A
105807,$GPRMC,134212.00,A,5240.15327,N,45,W,0.026,,091125,,,A*6C
$GPVTG,,T,,M,0.026,N,0.049,K,A*2A
$GPGGA,134212.00,5240.15327,N,00131.40445,W,1,12,0.71,97.9,M,47.5,M,,*7E
$GPGSA,A,3,24,12,15,19,17,10,23,22,13,14,32,25,1.49,0.71,1.31*05
$GPGSV,4,1,15,01,03,02
105807,0,36,02,03,352,35,10,29,299,35,178
$GPGSV,4,2,15,13,20*70
$GPGSV,4,3,15,19,33,091,46,22,26,053,45,23,28,250,29,24,84,284,34*7F
$GPGSV,4,4,15,25,10,223,27,32,11,314,30,40,11,118,34*42
$GPGLL,5240.15327,N,00131.40445,W,134212.00,A,A*7F
106812,$GPRMC,134213.00,A,5240.15326,N,00131.40441,W,0.,,,A*6C
$GPVTG,,T,,M,0.088,N,0.164,K,A*20
$GPGGA,134213.00,5240.15326,N,00131.40441,W,1,12,0.71,98.0,M,47.5,M,,*7C
$GPGSA,A,3,24,12,15,19,17,10,23,22,13,14,32,25,1.49,0.71,1.31*05
$GPGSV,4,1,15,01,03,020,
106812,36,02,03,352,36,10,29,299,37,12,9
$GPGSV,4,2,15,13,20,140,38,14,10,051,42,15,39,170,40,17,30,063,45*7E
$GPGSV,4,3,15,19,33,091,45,22,26,053,45,23,28,250,28,24,84,284,37*7E
$GPGSV,4,4,15,25,10,223,28,32,11,314,36,40,11,118,34*4B
$GPGLL,5240.15326,N,0013
106812,1.40441,W,134213.00,A,A*7B
107854,$GPRMC,134214.00,A,5240.15320,N,00131.40440,W,0.309,,09,,*7C
$GPGSA,A,3,24,12,15,19,17,10,23,22,13,14,32,25,1.49,0.71,1.31*05
$GPGSV,4,1,15,01,03,020,36,02,03,352,34,10,29,299,35,12,41,209,29*77
$GPGSV,4,2,15,13,20,140,40,14,10,051,40,15,39,170,36,17,30
107854,,063,44*73
$GPGSV,4,3,15,19,33,,053,42,23,28,250,19,24,84,284,35*79
$GPGSV,4,4,15,25,10,223,27,32,11,314,36,40,11,118,35*45
$GPGLL,5240.15320,N,00131.40440,W,134214.00,A,A*7B
108831,$GPRMC,134215.00,A,5240.15320,N,00131.40435,W,0.139,,091125,,,A*64
0.139,N,0.258,K,A*27
$GPGGA,134215.00,5240.15320,N,00131.40435,W,1,12,0.71,98.1,M,47.5,M,,*7E
$GPGSA,A,3,24,12,15,19,17,10,23,22,13,14,32,25,1.49,0.71,1.31*05
$GPGSV,4,1,15,01,03,020,36,
108831,02,03,352,37,10,29,299,33,12,41,209,GSV,4,2,15,13,20,140,40,14,10,051,39,15,39,170,40,17,30,063,45*7D
$GPGSV,4,3,15,19,33,091,46,22,26,053,43,23,28,250,22,24,85,285,37*71
$GPGSV,4,4,15,25,10,223,28,32,11,314,33,40,11,118,36*4C
$GPGLL,5240.15320,N,00131.
108831,40435,W,134215.00,A,A*78
109876,$GPRMC,134216.00,A,5240.15322,N,00131.40424,,091125,,,A*69
$GPVTG,,19,17,10,23,22,13,14,32,25,1.49,0.71,1.31*05
$GPGSV,4,1,15,01,03,020,33,02,03,352,28,10,29,299,35,12,41,209,33*74
$GPGSV,4,2,15,13,20,140,39,14,10,051,39,15,39,170,38,17,30,063,46*7F
$G
109876,PGSV,4,3,15,19,33,091,44,22,26,0,250,29,24,85,285,38*776,40,10,118,36*41
$GPGLL,5240.15322,N,00131.40424,W,134216.00,A,A*79
110825,$GPRMC,134217.00,A,5240.15320,N,00131.40423,W,0.116,,091125,,,A*6C
$GPVTG,,T,215,K,A*23
$GPGGA,134217.00,5240.15320,N,00131.40423,W,1,12,0.71,97.9,M,47.5,M,,*7C
$GPGSA,A,3,24,12,15,19,17,10,23,22,13,14,32,25,1.49,0.71,1.31*05
$GPGSV,4,1,15,01,03,020,35
110825,,02,03,352,33,10,29,299,35,12,41,209
$GPGSV,4,2,15,13,20,140,39,14,10,051,37,15,39,170,35,17,30,063,44*7E
$GPGSV,4,3,15,19,33,091,44,22,26,053,41,23,28,250,23,24,85,285,37*70
$GPGSV,4,4,15,25,10,223,28,32,11,314,36,40,10,118,35*4B
$GPGLL,5240.15320,N,00
110825,131.40423,W,134217.00,A,A*7D
111705,$GPRMC,134218.00,A,5240.15348,N,00131.40412,W,1.457,11.36,091125,,,A*45
$GPVTG,11.36,T,,M,1.457,N,2.698,K,A*0A
$GPGGA,134218.00,5240.15348,N,00131.40412,W,1,12,0.71,97.9,M,47.5,M,,*7F
$GPGSA,A,3,24,12,15,19,17,10,23,22,13,14,32,25,1.49,0.71,1.31*05
$GP
111705,GSV,4,1,15,01,03,020,38,02,03,358,12,41,209,37*79
$GPGSV,4,2,15,13,20,140,41,14,10,051,41,15,39,170,32,17,30,063,44*77
$GPGSV,4,3,15,19,33,091,44,22,26,053,43,23,28,250,25,24,85,285,34*77
$GPGSV,4,4,15,25,10,223,27,32,11,314,36,40,10,118,36*47
$GPGLL,5
111705,240.15348,N,00131.40412,W,134218
112710,$GPRMC,134219.00,A,5240.15383,N,00131.40392,W,1.270,15.32,091125,,,A*4F
$GPVTG,15.32,T,,M,1.270,N,2.352,K,A*0A
$GPGGA,134219.00,5240.15383,N,00131.40392,W,1,11,0.78,98.0,M,47.5,M,,*7A
$GPGSA,A,3,24,12,15,19,17,10,23,22,13,14,32,,1.70,0.78,1.52*04
$GPGS
112710,V,4,1,15,01,03,020,38,02,03,352,,38,12,41,209,28*79
$GPGSV,4,2,15,13,20,140,37,14,10,051,40,15,39,170,39,17,30,063,44*7C
$GPGSV,4,3,15,19,33,091,44,22,26,053,44,23,28,250,24,24,85,285,40*72
$GPGSV,4,4,15,25,10,223,,32,11,314,39,40,10,118,35*4E
$GPGLL,5
112710,240.15383,N,00131.40392,W,134219
113831,$GPRMC,134220.00,A,5240.15400,N,00131.40376,W,0.301,,091$GPVTG,,T,,M,0.301,N,0.376,W,1,11,0.78,97.9,M,47.5,M,,*70
$GPGSA,A,3,24,12,15,19,17,10,23,22,13,14,32,,1.70,0.78,1.52*04
$GPGSV,4,1,15,01,03,020,32,02,03,352,34,10,29,299,34,12,41,209,38*72
$GPGSV,
113831,4,2,15,13,20,140,41,14,10,051,40,17,30,063,46*70
$GPGSV,4,3,15,19,33,091,44,22,26,053,44,23,28,250,31,24,85,285,38*79
$GPGSV,4,4,15,25,10,223,33,32,11,314,37,40,10,118,36*43
$GPGLL,5240.15400,N,00131.40376,W,134220.00,A,A*7B
114811,$GPRMC,134221.00,A,5240.15400,N,00131.40370,1125,,,A*68
$GPVTG,,T,,M,0.175,N,0.324,K,A*25
$GPGGA,134221.00,5240.15400,N,00131.40370,W,1,12,0.71,97.9,M,47.5,M,,*7D
$GPGSA,A,3,24,12,15,19,17,10,23,22,13,14,32,25,1.49,0.71,1.31*05
$GPGSV,4,1,15,01,03,020,
114811,36,02,03,352,29,10,29,299,30,12,GPGSV,4,2,15,13,20,140,43,14,10,051,38,15,39,170,40,17,30,063,45*7F
$GPGSV,4,3,15,19,33,091,45,22,26,053,42,23,28,250,32,24,85,285,40*72
$GPGSV,4,4,15,25,10,223,30,32,11,314,30,40,10,118,38*49
$GPGLL,5240.15400,N,00131.40
114811,370,W,134221.00,A,A*7C
115866,$GPRMC,134222.00,A,5240.15407,N,W,0.386,14.68,091125,,,
$GPGSA,A,3,24,12,15,19,17,10,23,22,13,14,32,25,1.49,0.71,1.31*05
$GPGSV,4,1,15,01,03,020,28,02,03,352,32,10,29,299,38,12,41,209,42*7E
$GPGSV,4,2,15,13,20,140,39,14,10,051,36,15,39,170,39,17,30,063,
115866,43*74
$GPGSV,4,3,15,19,33,091,40,23,28,250,34,24,85,285,42*70
$GPGSV,4,4,15,25,10,223,30,32,11,314,42,40,10,118,32*46
$GPGLL,5240.15407,N,00131.40353,W,134222.00,A,A*79
116847,$GPRMC,134223.00,A,5240.15410,N,00131.40346,W,0.046,,09134223.00,5240.15410,N,00131.40346,W,1,11,0.78,98.1,M,47.5,M,,*76
$GPGSA,A,3,24,12,15,19,17,10,23,22,13,14,32,,1.70,0.78,1.52*04
